{
  "targets": [
    {"name": "Vertex Pharmaceuticals", "region": "Genetown", "city": "Boston", "lat": 42.3601, "lng": -71.0589, "focus": "Cystic Fibrosis, Gene Editing", "funding": "Public", "employees": "4500+", "stage": "Commercial", "priority": "strategic", "isCustomer": false},
    {"name": "Sarepta Therapeutics", "region": "Genetown", "city": "Cambridge", "lat": 42.3736, "lng": -71.1097, "focus": "Gene Therapy, Duchenne MD", "funding": "Public", "employees": "3500+", "stage": "Commercial", "priority": "strategic", "isCustomer": false},
    {"name": "Biogen", "region": "Genetown", "city": "Cambridge", "lat": 42.3625, "lng": -71.0862, "focus": "Neurology, Alzheimer's", "funding": "Public", "employees": "7000+", "stage": "Commercial", "priority": "strategic", "isCustomer": false},
    {"name": "Blueprint Medicines", "region": "Genetown", "city": "Cambridge", "lat": 42.3640, "lng": -71.0830, "focus": "Precision Oncology", "funding": "Public", "employees": "1000+", "stage": "Commercial", "priority": "high", "isCustomer": false},
    {"name": "Bluebird Bio", "region": "Genetown", "city": "Somerville", "lat": 42.3876, "lng": -71.0995, "focus": "Gene Therapy", "funding": "Public", "employees": "800+", "stage": "Commercial", "priority": "high", "isCustomer": false},
    {"name": "Beam Therapeutics", "region": "Genetown", "city": "Cambridge", "lat": 42.3655, "lng": -71.0810, "focus": "Base Editing", "funding": "Public", "employees": "500+", "stage": "Clinical", "priority": "high", "isCustomer": false},
    {"name": "Takeda Pharmaceuticals", "region": "Genetown", "city": "Cambridge", "lat": 42.3610, "lng": -71.0850, "focus": "Rare Diseases, Oncology", "funding": "Public", "employees": "50000+", "stage": "Commercial", "priority": "strategic", "isCustomer": true},
    {"name": "Alnylam Pharmaceuticals", "region": "Genetown", "city": "Cambridge", "lat": 42.3590, "lng": -71.0900, "focus": "RNAi Therapeutics", "funding": "Public", "employees": "2500+", "stage": "Commercial", "priority": "high", "isCustomer": true},
    {"name": "Moderna", "region": "Genetown", "city": "Cambridge", "lat": 42.3645, "lng": -71.0820, "focus": "mRNA Therapeutics", "funding": "Public", "employees": "5000+", "stage": "Commercial", "priority": "strategic", "isCustomer": true},
    {"name": "Intellia Therapeutics", "region": "Genetown", "city": "Cambridge", "lat": 42.3615, "lng": -71.0880, "focus": "CRISPR Gene Editing", "funding": "Public", "employees": "600+", "stage": "Clinical", "priority": "high", "isCustomer": true},
    {"name": "Alexion Pharmaceuticals", "region": "Genetown", "city": "Boston", "lat": 42.3505, "lng": -71.0540, "focus": "Rare Diseases (AstraZeneca)", "funding": "AstraZeneca subsidiary", "employees": "3000+", "stage": "Commercial", "priority": "high", "isCustomer": true},
    {"name": "Harmony Biosciences", "region": "Genetown", "city": "Plymouth Meeting", "lat": 40.1020, "lng": -75.2740, "focus": "Neuroscience", "funding": "Public", "employees": "300+", "stage": "Commercial", "priority": "medium", "isCustomer": true},
    {"name": "Ironwood Pharmaceuticals", "region": "Genetown", "city": "Boston", "lat": 42.3480, "lng": -71.0560, "focus": "GI Diseases", "funding": "Public", "employees": "400+", "stage": "Commercial", "priority": "medium", "isCustomer": true},

    {"name": "Merck & Co.", "region": "NJPharma", "city": "Rahway", "lat": 40.6082, "lng": -74.2776, "focus": "Oncology, Vaccines", "funding": "Public", "employees": "68000+", "stage": "Commercial", "priority": "strategic", "isCustomer": false},
    {"name": "Bristol-Myers Squibb", "region": "NJPharma", "city": "New Brunswick", "lat": 40.4862, "lng": -74.4518, "focus": "Oncology, Immunology", "funding": "Public", "employees": "34000+", "stage": "Commercial", "priority": "strategic", "isCustomer": false},
    {"name": "Novo Nordisk", "region": "NJPharma", "city": "Plainsboro", "lat": 40.3340, "lng": -74.5850, "focus": "Diabetes, Obesity", "funding": "Public", "employees": "55000+", "stage": "Commercial", "priority": "strategic", "isCustomer": false},
    {"name": "Organon", "region": "NJPharma", "city": "Jersey City", "lat": 40.7178, "lng": -74.0431, "focus": "Women's Health", "funding": "Public", "employees": "9000+", "stage": "Commercial", "priority": "high", "isCustomer": false},
    {"name": "Insmed", "region": "NJPharma", "city": "Bridgewater", "lat": 40.5923, "lng": -74.6256, "focus": "Rare Diseases", "funding": "Public", "employees": "1500+", "stage": "Commercial", "priority": "high", "isCustomer": false},
    {"name": "PTC Therapeutics", "region": "NJPharma", "city": "South Plainfield", "lat": 40.5751, "lng": -74.4118, "focus": "Rare Diseases, Gene Therapy", "funding": "Public", "employees": "1000+", "stage": "Commercial", "priority": "high", "isCustomer": false},
    {"name": "Bausch Health", "region": "NJPharma", "city": "Bridgewater", "lat": 40.5900, "lng": -74.6300, "focus": "Eye Health, GI, Dermatology", "funding": "Public", "employees": "20000+", "stage": "Commercial", "priority": "high", "isCustomer": true},
    {"name": "Johnson & Johnson", "region": "NJPharma", "city": "New Brunswick", "lat": 40.4870, "lng": -74.4500, "focus": "Pharmaceuticals, MedTech", "funding": "Public", "employees": "130000+", "stage": "Commercial", "priority": "strategic", "isCustomer": true},
    {"name": "Regeneron Pharmaceuticals", "region": "NJPharma", "city": "Tarrytown", "lat": 41.0762, "lng": -73.8587, "focus": "Antibody Therapeutics", "funding": "Public", "employees": "12000+", "stage": "Commercial", "priority": "strategic", "isCustomer": true},
    {"name": "Integra LifeSciences", "region": "NJPharma", "city": "Princeton", "lat": 40.3573, "lng": -74.6672, "focus": "MedTech, Neurosurgery", "funding": "Public", "employees": "4000+", "stage": "Commercial", "priority": "medium", "isCustomer": true},

    {"name": "IQVIA", "region": "ResearchTriangle", "city": "Durham", "lat": 35.9940, "lng": -78.8986, "focus": "CRO, Data Analytics", "funding": "Public", "employees": "87000+", "stage": "Commercial", "priority": "strategic", "isCustomer": false},
    {"name": "Fujifilm Diosynth", "region": "ResearchTriangle", "city": "Holly Springs", "lat": 35.6513, "lng": -78.8336, "focus": "CDMO Biomanufacturing", "funding": "Fujifilm subsidiary", "employees": "3000+", "stage": "Commercial", "priority": "strategic", "isCustomer": false},
    {"name": "PPD (Thermo Fisher)", "region": "ResearchTriangle", "city": "Wilmington", "lat": 34.2257, "lng": -77.9447, "focus": "CRO Services", "funding": "Thermo Fisher subsidiary", "employees": "30000+", "stage": "Commercial", "priority": "high", "isCustomer": false},
    {"name": "Syneos Health", "region": "ResearchTriangle", "city": "Morrisville", "lat": 35.8235, "lng": -78.8256, "focus": "CRO/CSO Services", "funding": "Private (Elliott)", "employees": "29000+", "stage": "Commercial", "priority": "high", "isCustomer": false},
    {"name": "Samsung Biologics", "region": "ResearchTriangle", "city": "Wake Forest", "lat": 35.9799, "lng": -78.5097, "focus": "CDMO Biomanufacturing", "funding": "Samsung subsidiary", "employees": "1000+", "stage": "Commercial", "priority": "high", "isCustomer": false},
    {"name": "Catalent", "region": "ResearchTriangle", "city": "Morrisville", "lat": 35.8250, "lng": -78.8300, "focus": "CDMO Drug Delivery", "funding": "Public (Novo Holdings)", "employees": "17000+", "stage": "Commercial", "priority": "high", "isCustomer": false},

    {"name": "AstraZeneca", "region": "MidAtlantic", "city": "Wilmington", "lat": 39.7391, "lng": -75.5398, "focus": "Oncology, Respiratory", "funding": "Public", "employees": "83000+", "stage": "Commercial", "priority": "strategic", "isCustomer": false},
    {"name": "GSK", "region": "MidAtlantic", "city": "Philadelphia", "lat": 39.9526, "lng": -75.1652, "focus": "Vaccines, Specialty Medicines", "funding": "Public", "employees": "70000+", "stage": "Commercial", "priority": "strategic", "isCustomer": false},
    {"name": "Merck KGaA", "region": "MidAtlantic", "city": "Burlington", "lat": 40.0712, "lng": -74.8518, "focus": "Healthcare, Life Science Tools", "funding": "Public", "employees": "60000+", "stage": "Commercial", "priority": "high", "isCustomer": false},
    {"name": "Emergent BioSolutions", "region": "MidAtlantic", "city": "Gaithersburg", "lat": 39.1434, "lng": -77.2014, "focus": "Biodefense, CDMO", "funding": "Public", "employees": "3000+", "stage": "Commercial", "priority": "high", "isCustomer": false},
    {"name": "Catalent Baltimore", "region": "MidAtlantic", "city": "Baltimore", "lat": 39.2904, "lng": -76.6122, "focus": "CDMO Biologics", "funding": "Public (Novo Holdings)", "employees": "2000+", "stage": "Commercial", "priority": "high", "isCustomer": false},
    {"name": "Abbott Laboratories", "region": "MidAtlantic", "city": "Philadelphia", "lat": 39.9510, "lng": -75.1680, "focus": "MedTech, Diagnostics", "funding": "Public", "employees": "113000+", "stage": "Commercial", "priority": "strategic", "isCustomer": true},
    {"name": "Spectranetics", "region": "MidAtlantic", "city": "Colorado Springs", "lat": 39.9500, "lng": -75.1700, "focus": "MedTech (Philips)", "funding": "Philips subsidiary", "employees": "1500+", "stage": "Commercial", "priority": "medium", "isCustomer": true}
  ],
  "existingCustomers": [
    {"name": "Abbott Laboratories", "region": "MidAtlantic", "city": "Philadelphia", "lat": 39.9510, "lng": -75.1680, "revenue": "$1.94M", "gp": "47.1%", "status": "star-account"},
    {"name": "Bausch Health", "region": "NJPharma", "city": "Bridgewater", "lat": 40.5900, "lng": -74.6300, "revenue": "$739K", "gp": "29.4%", "status": "margin-watch"},
    {"name": "Takeda Pharmaceuticals", "region": "Genetown", "city": "Cambridge", "lat": 42.3610, "lng": -71.0850, "revenue": "$702K", "gp": "14.5%", "status": "margin-fix"},
    {"name": "Regeneron Pharmaceuticals", "region": "NJPharma", "city": "Tarrytown", "lat": 41.0762, "lng": -73.8587, "revenue": "$436K", "gp": "63.0%", "status": "growing"},
    {"name": "Johnson & Johnson", "region": "NJPharma", "city": "New Brunswick", "lat": 40.4870, "lng": -74.4500, "revenue": "$408K", "gp": "32.4%", "status": "declining"},
    {"name": "Integra LifeSciences", "region": "NJPharma", "city": "Princeton", "lat": 40.3573, "lng": -74.6672, "revenue": "$266K", "gp": "37.0%", "status": "declining"},
    {"name": "Spectranetics", "region": "MidAtlantic", "city": "Philadelphia area", "lat": 39.9500, "lng": -75.1700, "revenue": "$242K", "gp": "26.4%", "status": "declining"},
    {"name": "Harmony Biosciences", "region": "Genetown", "city": "Plymouth Meeting", "lat": 40.1020, "lng": -75.2740, "revenue": "$127K", "gp": "81.6%", "status": "healthy"},
    {"name": "Alnylam Pharmaceuticals", "region": "Genetown", "city": "Cambridge", "lat": 42.3590, "lng": -71.0900, "revenue": "$110K", "gp": "71.5%", "status": "healthy"},
    {"name": "Ironwood Pharmaceuticals", "region": "Genetown", "city": "Boston", "lat": 42.3480, "lng": -71.0560, "revenue": "$102K", "gp": "79.1%", "status": "growing"},
    {"name": "Moderna", "region": "Genetown", "city": "Cambridge", "lat": 42.3645, "lng": -71.0820, "revenue": "$37K", "gp": "92.8%", "status": "stable"},
    {"name": "Intellia Therapeutics", "region": "Genetown", "city": "Cambridge", "lat": 42.3615, "lng": -71.0880, "revenue": "$37K", "gp": "96.6%", "status": "stable"},
    {"name": "Alexion Pharmaceuticals", "region": "Genetown", "city": "Boston", "lat": 42.3505, "lng": -71.0540, "revenue": "$34K", "gp": "100%", "status": "stable"}
  ],
  "acquiredCompanies": [],
  "lastUpdated": "2026-02-10T12:00:00-05:00",
  "researchNotes": "Eastern region targets mapped to 4 territories: Genetown (Boston), NJ Pharma, Mid-Atlantic (DC/Philly), Research Triangle (NC greenfield).",
  "dataSource": "Live MCP data from Finance MCP (get_customer_ltv) - Feb 10, 2026",
  "keyInsights": {
    "totalEasternCustomers": 36,
    "hotExpansion": ["Abbott (+213.8%)", "Takeda (+88.2%)", "Ironwood (+93.9%)"],
    "atRisk": ["J&J (-13.5%)", "Integra (-48.6%)", "Spectranetics (-51.2%)"],
    "churned": [],
    "massiveOpportunity": "Research Triangle is greenfield - IQVIA, Fujifilm Diosynth, PPD, Samsung Biologics all targets",
    "marginFix": ["Takeda (14.5% GP)", "Bausch (29.4% GP)", "Spectranetics (26.4% GP)"],
    "researchTriangleGap": "$0 revenue from 6 Research Triangle targets"
  }
}
